{"type":"FeatureCollection","features":[{"type":"Feature","properties":{"Name":"TP Hà Nội"},"geometry":{"coordinates":[105.84802334321137,21.01944728572151],"type":"Point"},"id":0},{"type":"Feature","properties":{"Name":"TP Hải Phòng"},"geometry":{"coordinates":[106.6760980528615,20.852793224199075],"type":"Point"},"id":1},{"type":"Feature","properties":{"Name":"TP Huế"},"geometry":{"coordinates":[107.5912444907857,16.466299354521894],"type":"Point"},"id":2},{"type":"Feature","properties":{"Name":"TP Đà Nẵng"},"geometry":{"coordinates":[108.2133557142484,16.06818928209087],"type":"Point"},"id":3},{"type":"Feature","properties":{"Name":"TP HCM"},"geometry":{"coordinates":[106.69215747351848,10.780074250366908],"type":"Point"},"id":4},{"type":"Feature","properties":{"Name":"TP Cần Thơ"},"geometry":{"coordinates":[105.79410168538254,10.044894445975856],"type":"Point"},"id":5}]}